__time,/fmu/out/vehicle_local_position/ax,/fmu/out/vehicle_local_position/ay,/fmu/out/vehicle_local_position/az,/fmu/out/vehicle_local_position/dead_reckoning,/fmu/out/vehicle_local_position/delta_dist_bottom,/fmu/out/vehicle_local_position/delta_heading,/fmu/out/vehicle_local_position/delta_vxy[0],/fmu/out/vehicle_local_position/delta_vxy[1],/fmu/out/vehicle_local_position/delta_vz,/fmu/out/vehicle_local_position/delta_xy[0],/fmu/out/vehicle_local_position/delta_xy[1],/fmu/out/vehicle_local_position/delta_z,/fmu/out/vehicle_local_position/dist_bottom,/fmu/out/vehicle_local_position/dist_bottom_reset_counter,/fmu/out/vehicle_local_position/dist_bottom_sensor_bitfield,/fmu/out/vehicle_local_position/dist_bottom_valid,/fmu/out/vehicle_local_position/dist_bottom_var,/fmu/out/vehicle_local_position/eph,/fmu/out/vehicle_local_position/epv,/fmu/out/vehicle_local_position/evh,/fmu/out/vehicle_local_position/evv,/fmu/out/vehicle_local_position/heading,/fmu/out/vehicle_local_position/heading_good_for_control,/fmu/out/vehicle_local_position/heading_reset_counter,/fmu/out/vehicle_local_position/heading_var,/fmu/out/vehicle_local_position/ref_alt,/fmu/out/vehicle_local_position/ref_lat,/fmu/out/vehicle_local_position/ref_lon,/fmu/out/vehicle_local_position/ref_timestamp,/fmu/out/vehicle_local_position/tilt_var,/fmu/out/vehicle_local_position/timestamp,/fmu/out/vehicle_local_position/timestamp_sample,/fmu/out/vehicle_local_position/unaided_heading,/fmu/out/vehicle_local_position/v_xy_valid,/fmu/out/vehicle_local_position/v_z_valid,/fmu/out/vehicle_local_position/vx,/fmu/out/vehicle_local_position/vxy_reset_counter,/fmu/out/vehicle_local_position/vy,/fmu/out/vehicle_local_position/vz,/fmu/out/vehicle_local_position/vz_reset_counter,/fmu/out/vehicle_local_position/x,/fmu/out/vehicle_local_position/xy_global,/fmu/out/vehicle_local_position/xy_reset_counter,/fmu/out/vehicle_local_position/xy_valid,/fmu/out/vehicle_local_position/y,/fmu/out/vehicle_local_position/z,/fmu/out/vehicle_local_position/z_deriv,/fmu/out/vehicle_local_position/z_global,/fmu/out/vehicle_local_position/z_reset_counter,/fmu/out/vehicle_local_position/z_valid
1764161882.466973,0.003529720,-0.001120301,0.007118098,0.000000000,-0.251264662,-0.529267907,-0.008502826,-0.010987740,0.006643715,0.004897114,-0.009492125,-0.251264662,0.100000001,3.000000000,0.000000000,0.000000000,0.010000001,0.151917920,0.166527927,0.087046698,0.054111198,0.010072254,1.000000000,18.000000000,0.013102106,0.251355231,47.397971131,8.546163744,4148000.000000000,0.000060135,1764161882383095.000000000,1764161882379095.000000000,-2.578124762,1.000000000,1.000000000,-0.000109555,3.000000000,-0.013816073,0.001329458,2.000000000,3.444049597,1.000000000,4.000000000,1.000000000,3.547698021,0.037355974,-0.004511374,1.000000000,3.000000000,1.000000000
1764161882.480008,0.001419496,-0.001973210,0.003075227,0.000000000,-0.251264662,-0.529267907,-0.008502826,-0.010987740,0.006643715,0.004897114,-0.009492125,-0.251264662,0.100000001,3.000000000,0.000000000,0.000000000,0.010000001,0.150626004,0.165818825,0.086108729,0.053883281,0.010067942,1.000000000,18.000000000,0.013102874,0.251355231,47.397971131,8.546163744,4148000.000000000,0.000059996,1764161882391095.000000000,1764161882387095.000000000,-2.578128099,1.000000000,1.000000000,-0.000194262,3.000000000,-0.013939205,0.001307576,2.000000000,3.443967819,1.000000000,4.000000000,1.000000000,3.547482729,0.037195399,-0.004652669,1.000000000,3.000000000,1.000000000
1764161882.487401,-0.001038010,-0.000151904,0.001994427,0.000000000,-0.251264662,-0.529267907,-0.008502826,-0.010987740,0.006643715,0.004897114,-0.009492125,-0.251264662,0.100000001,3.000000000,0.000000000,0.000000000,0.010000001,0.151450843,0.166338250,0.086710483,0.054037351,0.010072035,1.000000000,18.000000000,0.013104429,0.251355231,47.397971131,8.546163744,4148000.000000000,0.000060085,1764161882407095.000000000,1764161882403095.000000000,-2.578121901,1.000000000,1.000000000,-0.000400593,3.000000000,-0.014168886,0.001191109,2.000000000,3.443805456,1.000000000,4.000000000,1.000000000,3.547054529,0.036886126,-0.004991059,1.000000000,3.000000000,1.000000000
1764161882.499950,0.006740367,-0.003284225,-0.000516884,0.000000000,-0.251264662,-0.529267907,-0.008502826,-0.010987740,0.006643715,0.004897114,-0.009492125,-0.251264662,0.100000001,3.000000000,0.000000000,0.000000000,0.010000001,0.151867241,0.166599065,0.087011851,0.054114241,0.010066018,1.000000000,18.000000000,0.013105203,0.251355231,47.397971131,8.546163744,4148000.000000000,0.000060130,1764161882415095.000000000,1764161882411095.000000000,-2.578126907,1.000000000,1.000000000,-0.000435772,3.000000000,-0.014294216,0.001144462,2.000000000,3.443725109,1.000000000,4.000000000,1.000000000,3.546841621,0.036737427,-0.005140548,1.000000000,3.000000000,1.000000000
1764161882.508455,0.003742832,-0.001385240,0.001062173,0.000000000,-0.251264662,-0.529267907,-0.008502826,-0.010987740,0.006643715,0.004897114,-0.009492125,-0.251264662,0.100000001,3.000000000,0.000000000,0.000000000,0.010000001,0.150577232,0.165888876,0.086075522,0.053886164,0.010056693,1.000000000,18.000000000,0.013105973,0.251355231,47.397971131,8.546163744,4148000.000000000,0.000059991,1764161882423095.000000000,1764161882419095.000000000,-2.578135252,1.000000000,1.000000000,-0.000507385,3.000000000,-0.014395299,0.001113412,2.000000000,3.443638802,1.000000000,4.000000000,1.000000000,3.546641588,0.036588222,-0.005273368,1.000000000,3.000000000,1.000000000
1764161882.520996,-0.008073333,-0.007569171,0.001816545,0.000000000,-0.251264662,-0.529267907,-0.008502826,-0.010987740,0.006643715,0.004897114,-0.009492125,-0.251264662,0.100000001,3.000000000,0.000000000,0.000000000,0.010000001,0.150988027,0.166148290,0.086376019,0.053963248,0.010055710,1.000000000,18.000000000,0.013106750,0.251355231,47.397971131,8.546163744,4148000.000000000,0.000060036,1764161882431095.000000000,1764161882427095.000000000,-2.578135252,1.000000000,1.000000000,-0.000670999,3.000000000,-0.014543467,0.001089561,2.000000000,3.443552732,1.000000000,4.000000000,1.000000000,3.546441555,0.036442935,-0.005393797,1.000000000,3.000000000,1.000000000
1764161882.527989,-0.002290653,-0.004902500,0.005085952,0.000000000,-0.251264662,-0.529267907,-0.008502826,-0.010987740,0.006643715,0.004897114,-0.009492125,-0.251264662,0.100000001,3.000000000,0.000000000,0.000000000,0.010000001,0.151401460,0.166408449,0.086676978,0.054040227,0.010057016,1.000000000,18.000000000,0.013107528,0.251355231,47.397971131,8.546163744,4148000.000000000,0.000060081,1764161882439095.000000000,1764161882435095.000000000,-2.578133106,1.000000000,1.000000000,-0.000785888,3.000000000,-0.014667979,0.001092996,2.000000000,3.443466663,1.000000000,4.000000000,1.000000000,3.546241999,0.036301717,-0.005481904,1.000000000,3.000000000,1.000000000
1764161882.540141,-0.000840784,0.000100456,-0.004685949,0.000000000,-0.251264662,-0.529267907,-0.008502826,-0.010987740,0.006643715,0.004897114,-0.009492125,-0.251264662,0.100000001,3.000000000,0.000000000,0.000000000,0.010000001,0.150529400,0.165774077,0.086043596,0.053867426,0.010066152,1.000000000,18.000000000,0.013109067,0.251355231,47.397971131,8.546163744,4148000.000000000,0.000059987,1764161882455095.000000000,1764161882451095.000000000,-2.578122377,1.000000000,1.000000000,-0.001029603,3.000000000,-0.014887912,0.000993405,2.000000000,3.443273067,1.000000000,4.000000000,1.000000000,3.545854568,0.036009118,-0.005771417,1.000000000,3.000000000,1.000000000
1764161882.549005,-0.002921843,0.004230569,-0.004544854,0.000000000,-0.251264662,-0.529267907,-0.008502826,-0.010987740,0.006643715,0.004897114,-0.009492125,-0.251264662,0.100000001,3.000000000,0.000000000,0.000000000,0.010000001,0.150939912,0.166033268,0.086344197,0.053944532,0.010069972,1.000000000,18.000000000,0.013109845,0.251355231,47.397971131,8.546163744,4148000.000000000,0.000060032,1764161882463095.000000000,1764161882459095.000000000,-2.578117609,1.000000000,1.000000000,-0.001172905,3.000000000,-0.014927010,0.000923542,2.000000000,3.443165779,1.000000000,4.000000000,1.000000000,3.545667171,0.035867870,-0.005928944,1.000000000,3.000000000,1.000000000
1764161882.560207,0.007158956,-0.008066861,0.002925284,0.000000000,-0.251264662,-0.529267907,-0.008502826,-0.010987740,0.006643715,0.004897114,-0.009492125,-0.251264662,0.100000001,3.000000000,0.000000000,0.000000000,0.010000001,0.151768878,0.166553870,0.086946554,0.054098446,0.010072819,1.000000000,18.000000000,0.013111397,0.251355231,47.397971131,8.546163744,4148000.000000000,0.000060122,1764161882479095.000000000,1764161882475095.000000000,-2.578113079,1.000000000,1.000000000,-0.001386035,3.000000000,-0.015125605,0.000812084,2.000000000,3.442952394,1.000000000,4.000000000,1.000000000,3.545293808,0.035595387,-0.006201401,1.000000000,3.000000000,1.000000000
1764161882.569212,0.005078033,-0.004710356,-0.009272247,0.000000000,-0.251264662,-0.529267907,-0.008502826,-0.010987740,0.006643715,0.004897114,-0.009492125,-0.251264662,0.100000001,3.000000000,0.000000000,0.000000000,0.010000001,0.152187347,0.166815281,0.087247923,0.054175254,0.010083084,1.000000000,18.000000000,0.013112169,0.251355231,47.397971131,8.546163744,4148000.000000000,0.000060166,1764161882487095.000000000,1764161882483095.000000000,-2.578102112,1.000000000,1.000000000,-0.001456480,3.000000000,-0.015230509,0.000707292,2.000000000,3.442846775,1.000000000,4.000000000,1.000000000,3.545107365,0.035464227,-0.006379817,1.000000000,3.000000000,1.000000000
1764161882.581117,0.003611498,-0.004521294,-0.002243556,0.000000000,-0.251264662,-0.529267907,-0.008502826,-0.010987740,0.006643715,0.004897114,-0.009492125,-0.251264662,0.100000001,3.000000000,0.000000000,0.000000000,0.010000001,0.150885120,0.166101441,0.086301208,0.053945854,0.010085545,1.000000000,18.000000000,0.013112937,0.251355231,47.397971131,8.546163744,4148000.000000000,0.000060026,1764161882495095.000000000,1764161882491095.000000000,-2.578099012,1.000000000,1.000000000,-0.001565545,3.000000000,-0.015324348,0.000660307,2.000000000,3.442719460,1.000000000,4.000000000,1.000000000,3.544933319,0.035336792,-0.006495312,1.000000000,3.000000000,1.000000000
1764161882.589722,0.003598110,-0.013449730,0.000695698,0.000000000,-0.251264662,-0.529267907,-0.008502826,-0.010987740,0.006643715,0.004897114,-0.009492125,-0.251264662,0.100000001,3.000000000,0.000000000,0.000000000,0.010000001,0.151297897,0.166175514,0.086602218,0.054000955,0.010079627,1.000000000,18.000000000,0.013113715,0.251355231,47.397971131,8.546163744,4148000.000000000,0.000060071,1764161882503095.000000000,1764161882499095.000000000,-2.578104019,1.000000000,1.000000000,-0.001671203,3.000000000,-0.015488051,0.000638318,2.000000000,3.442593336,1.000000000,4.000000000,1.000000000,3.544759035,0.035215825,-0.006578358,1.000000000,3.000000000,1.000000000
1764161882.600978,0.003726873,-0.007988695,-0.000795349,0.000000000,-0.251264662,-0.529267907,-0.008502826,-0.010987740,0.006643715,0.004897114,-0.009492125,-0.251264662,0.100000001,3.000000000,0.000000000,0.000000000,0.010000001,0.152131051,0.166697130,0.087202780,0.054154728,0.010086453,1.000000000,18.000000000,0.013105256,0.251355231,47.397971131,8.546163744,4148000.000000000,0.000060158,1764161882519095.000000000,1764161882515095.000000000,-2.578096390,1.000000000,1.000000000,-0.001905190,3.000000000,-0.015724480,0.000657022,2.000000000,3.442343235,1.000000000,4.000000000,1.000000000,3.544409275,0.034984425,-0.006669916,1.000000000,3.000000000,1.000000000
1764161882.608734,0.002277676,0.002135443,0.006056390,0.000000000,-0.251264662,-0.529267907,-0.008502826,-0.010987740,0.006643715,0.004897114,-0.009492125,-0.251264662,0.100000001,3.000000000,0.000000000,0.000000000,0.010000001,0.150831014,0.165985197,0.086257890,0.053925842,0.010085469,1.000000000,18.000000000,0.013106024,0.251355231,47.397971131,8.546163744,4148000.000000000,0.000060018,1764161882527095.000000000,1764161882523095.000000000,-2.578097582,1.000000000,1.000000000,-0.002031750,3.000000000,-0.015753681,0.000683993,2.000000000,3.442207098,1.000000000,4.000000000,1.000000000,3.544243574,0.034877941,-0.006687751,1.000000000,3.000000000,1.000000000
1764161882.621413,0.000338456,-0.003711833,0.009344890,0.000000000,-0.251264662,-0.529267907,-0.008502826,-0.010987740,0.006643715,0.004897114,-0.009492125,-0.251264662,0.100000001,3.000000000,0.000000000,0.000000000,0.010000001,0.151243418,0.166244969,0.086558551,0.054002870,0.010090676,1.000000000,18.000000000,0.013106800,0.251355231,47.397971131,8.546163744,4148000.000000000,0.000060062,1764161882535095.000000000,1764161882531095.000000000,-2.578092575,1.000000000,1.000000000,-0.002170129,3.000000000,-0.015828380,0.000737917,2.000000000,3.442071676,1.000000000,4.000000000,1.000000000,3.544078350,0.034774870,-0.006675162,1.000000000,3.000000000,1.000000000
1764161882.629294,-0.005728267,-0.003374767,0.000163447,0.000000000,-0.251264662,-0.529267907,-0.008502826,-0.010987740,0.006643715,0.004897114,-0.009492125,-0.251264662,0.100000001,3.000000000,0.000000000,0.000000000,0.010000001,0.151658490,0.166505471,0.086859614,0.054079805,0.010096715,1.000000000,18.000000000,0.013107575,0.251355231,47.397971131,8.546163744,4148000.000000000,0.000060107,1764161882543095.000000000,1764161882539095.000000000,-2.578086615,1.000000000,1.000000000,-0.002353436,3.000000000,-0.015899135,0.000719018,2.000000000,3.441936731,1.000000000,4.000000000,1.000000000,3.543912649,0.034674957,-0.006732037,1.000000000,3.000000000,1.000000000
1764161882.641480,-0.003180961,-0.009991880,0.000482891,0.000000000,-0.251264662,-0.529267907,-0.008502826,-0.010987740,0.006643715,0.004897114,-0.009492125,-0.251264662,0.100000001,3.000000000,0.000000000,0.000000000,0.010000001,0.152076215,0.166766703,0.087161183,0.054156635,0.010097836,1.000000000,18.000000000,0.013108351,0.251355231,47.397971131,8.546163744,4148000.000000000,0.000060152,1764161882551095.000000000,1764161882547095.000000000,-2.578085661,1.000000000,1.000000000,-0.002512855,3.000000000,-0.016021606,0.000703285,2.000000000,3.441802263,1.000000000,4.000000000,1.000000000,3.543746948,0.034577787,-0.006782495,1.000000000,3.000000000,1.000000000
1764161882.649645,-0.003653229,-0.005344231,0.005427747,0.000000000,-0.251264662,-0.529267907,-0.008502826,-0.010987740,0.006643715,0.004897114,-0.009492125,-0.251264662,0.100000001,3.000000000,0.000000000,0.000000000,0.010000001,0.151190355,0.166127801,0.086519010,0.053982772,0.010087110,1.000000000,18.000000000,0.013109894,0.251355231,47.397971131,8.546163744,4148000.000000000,0.000060057,1764161882567095.000000000,1764161882563095.000000000,-2.578096628,1.000000000,1.000000000,-0.002827405,3.000000000,-0.016198348,0.000778008,2.000000000,3.441486359,1.000000000,4.000000000,1.000000000,3.543413639,0.034416929,-0.006741853,1.000000000,3.000000000,1.000000000
1764161882.661812,-0.002221004,-0.000871638,0.004192814,0.000000000,-0.251264662,-0.529267907,-0.008502826,-0.010987740,0.006643715,0.004897114,-0.009492125,-0.251264662,0.100000001,3.000000000,0.000000000,0.000000000,0.010000001,0.151605070,0.166388080,0.086820088,0.054059729,0.010083388,1.000000000,18.000000000,0.013110670,0.251355231,47.397971131,8.546163744,4148000.000000000,0.000060102,1764161882575095.000000000,1764161882571095.000000000,-2.578100443,1.000000000,1.000000000,-0.002998488,3.000000000,-0.016247891,0.000801882,2.000000000,3.441329479,1.000000000,4.000000000,1.000000000,3.543246984,0.034339309,-0.006732536,1.000000000,3.000000000,1.000000000
1764161882.670504,-0.004146106,-0.001962282,-0.003395602,0.000000000,-0.251264662,-0.529267907,-0.008502826,-0.010987740,0.006643715,0.004897114,-0.009492125,-0.251264662,0.100000001,3.000000000,0.000000000,0.000000000,0.010000001,0.152022436,0.166649088,0.087121457,0.054136589,0.010078523,1.000000000,18.000000000,0.013111442,0.251355231,47.397971131,8.546163744,4148000.000000000,0.000060147,1764161882583095.000000000,1764161882579095.000000000,-2.578105211,1.000000000,1.000000000,-0.003181036,3.000000000,-0.016304951,0.000765356,2.000000000,3.441173553,1.000000000,4.000000000,1.000000000,3.543080568,0.034264028,-0.006781156,1.000000000,3.000000000,1.000000000
1764161882.682757,-0.002664430,-0.001058608,-0.001095235,0.000000000,-0.251264662,-0.529267907,-0.008502826,-0.010987740,0.006643715,0.004897114,-0.009492125,-0.251264662,0.100000001,3.000000000,0.000000000,0.000000000,0.010000001,0.150726572,0.165938005,0.086180195,0.053908069,0.010078447,1.000000000,18.000000000,0.013112207,0.251355231,47.397971131,8.546163744,4148000.000000000,0.000060007,1764161882591095.000000000,1764161882587095.000000000,-2.578105450,1.000000000,1.000000000,-0.003359329,3.000000000,-0.016342955,0.000758040,2.000000000,3.441015244,1.000000000,4.000000000,1.000000000,3.542932272,0.034207374,-0.006780660,1.000000000,3.000000000,1.000000000
1764161882.690170,-0.001213626,0.002380278,0.005033332,0.000000000,-0.251264662,-0.529267907,-0.008502826,-0.010987740,0.006643715,0.004897114,-0.009492125,-0.251264662,0.100000001,3.000000000,0.000000000,0.000000000,0.010000001,0.151138306,0.166197628,0.086480916,0.053985119,0.010078998,1.000000000,18.000000000,0.013112979,0.251355231,47.397971131,8.546163744,4148000.000000000,0.000060052,1764161882599095.000000000,1764161882595095.000000000,-2.578104973,1.000000000,1.000000000,-0.003521979,3.000000000,-0.016352586,0.000799738,2.000000000,3.440857410,1.000000000,4.000000000,1.000000000,3.542783976,0.034152836,-0.006729455,1.000000000,3.000000000,1.000000000
1764161882.702942,-0.000604152,-0.009851628,-0.007754191,0.000000000,-0.251264662,-0.529267907,-0.008502826,-0.010987740,0.006643715,0.004897114,-0.009492125,-0.251264662,0.100000001,3.000000000,0.000000000,0.000000000,0.010000001,0.151969716,0.166719034,0.087083496,0.054138929,0.010076893,1.000000000,18.000000000,0.013114532,0.251355231,47.397971131,8.546163744,4148000.000000000,0.000060141,1764161882615095.000000000,1764161882611095.000000000,-2.578107357,1.000000000,1.000000000,-0.003803086,3.000000000,-0.016498296,0.000698244,2.000000000,3.440544844,1.000000000,4.000000000,1.000000000,3.542487144,0.034048855,-0.006807100,1.000000000,3.000000000,1.000000000
1764161882.710050,-0.004881851,0.001619966,0.002018176,0.000000000,-0.251264662,-0.529267907,-0.008502826,-0.010987740,0.006643715,0.004897114,-0.009492125,-0.251264662,0.100000001,3.000000000,0.000000000,0.000000000,0.010000001,0.150675848,0.165822148,0.086144194,0.053888589,0.010079024,1.000000000,18.000000000,0.013115298,0.251355231,47.397971131,8.546163744,4148000.000000000,0.000060002,1764161882623095.000000000,1764161882619095.000000000,-2.578105211,1.000000000,1.000000000,-0.003996888,3.000000000,-0.016518526,0.000732043,2.000000000,3.440387011,1.000000000,4.000000000,1.000000000,3.542335510,0.034036219,-0.006720485,1.000000000,3.000000000,1.000000000
1764161882.722301,0.002915287,-0.006256869,0.003170222,0.000000000,-0.251264662,-0.529267907,-0.008502826,-0.010987740,0.006643715,0.004897114,-0.009492125,-0.251264662,0.100000001,3.000000000,0.000000000,0.000000000,0.010000001,0.151087254,0.166081533,0.086444855,0.053965665,0.010081531,1.000000000,18.000000000,0.013116072,0.251355231,47.397971131,8.546163744,4148000.000000000,0.000060047,1764161882631095.000000000,1764161882627095.000000000,-2.578102827,1.000000000,1.000000000,-0.004124330,3.000000000,-0.016600795,0.000774575,2.000000000,3.440229893,1.000000000,4.000000000,1.000000000,3.542183876,0.034024805,-0.006625024,1.000000000,3.000000000,1.000000000
1764161882.730228,-0.005117705,-0.004200101,0.003069639,0.000000000,-0.251264662,-0.529267907,-0.008502826,-0.010987740,0.006643715,0.004897114,-0.009492125,-0.251264662,0.100000001,3.000000000,0.000000000,0.000000000,0.010000001,0.151501313,0.166341648,0.086746082,0.054042645,0.010078116,1.000000000,18.000000000,0.013116846,0.251355231,47.397971131,8.546163744,4148000.000000000,0.000060092,1764161882639095.000000000,1764161882635095.000000000,-2.578106403,1.000000000,1.000000000,-0.004312156,3.000000000,-0.016665664,0.000815834,2.000000000,3.440073252,1.000000000,4.000000000,1.000000000,3.542032003,0.034014434,-0.006530744,1.000000000,3.000000000,1.000000000
1764161882.742480,0.006447658,0.002090208,0.003132503,0.000000000,-0.251264662,-0.529267907,-0.008502826,-0.010987740,0.006643715,0.004897114,-0.009492125,-0.251264662,0.100000001,3.000000000,0.000000000,0.000000000,0.010000001,0.150626108,0.165892228,0.086109623,0.053891357,0.010080656,1.000000000,18.000000000,0.013118392,0.251355231,47.397971131,8.546163744,4148000.000000000,0.000059997,1764161882655095.000000000,1764161882651095.000000000,-2.578104019,1.000000000,1.000000000,-0.004559285,3.000000000,-0.016675150,0.000949663,2.000000000,3.439763069,1.000000000,4.000000000,1.000000000,3.541737556,0.034002721,-0.006285038,1.000000000,3.000000000,1.000000000
1764161882.750239,-0.000353502,-0.002885594,0.001775566,0.000000000,-0.251264662,-0.529267907,-0.008502826,-0.010987740,0.006643715,0.004897114,-0.009492125,-0.251264662,0.100000001,3.000000000,0.000000000,0.000000000,0.010000001,0.151037201,0.166151688,0.086410098,0.053968430,0.010084706,1.000000000,18.000000000,0.013119166,0.251355231,47.397971131,8.546163744,4148000.000000000,0.000060042,1764161882663095.000000000,1764161882659095.000000000,-2.578099966,1.000000000,1.000000000,-0.004707371,3.000000000,-0.016724367,0.000983178,2.000000000,3.439609528,1.000000000,4.000000000,1.000000000,3.541594982,0.034001097,-0.006192896,1.000000000,3.000000000,1.000000000
1764161882.762580,0.000523676,0.000235705,-0.006938818,0.000000000,-0.251264662,-0.529267907,-0.008502826,-0.010987740,0.006643715,0.004897114,-0.009492125,-0.251264662,0.100000001,3.000000000,0.000000000,0.000000000,0.010000001,0.151450947,0.166411877,0.086711116,0.054045405,0.010083319,1.000000000,18.000000000,0.013119940,0.251355231,47.397971131,8.546163744,4148000.000000000,0.000060087,1764161882671095.000000000,1764161882667095.000000000,-2.578101635,1.000000000,1.000000000,-0.004844693,3.000000000,-0.016747825,0.000946447,2.000000000,3.439456463,1.000000000,4.000000000,1.000000000,3.541451931,0.034000024,-0.006171163,1.000000000,3.000000000,1.000000000
1764161882.770666,-0.000925047,0.000882974,-0.000965316,0.000000000,-0.251264662,-0.529267907,-0.008502826,-0.010987740,0.006643715,0.004897114,-0.009492125,-0.251264662,0.100000001,3.000000000,0.000000000,0.000000000,0.010000001,0.151867360,0.166672796,0.087012284,0.054122284,0.010080527,1.000000000,18.000000000,0.013120719,0.251355231,47.397971131,8.546163744,4148000.000000000,0.000060132,1764161882679095.000000000,1764161882675095.000000000,-2.578104496,1.000000000,1.000000000,-0.004989957,3.000000000,-0.016765332,0.000956988,2.000000000,3.439304113,1.000000000,4.000000000,1.000000000,3.541308880,0.033999443,-0.006102333,1.000000000,3.000000000,1.000000000
1764161882.783897,0.001715431,0.001607233,-0.003617722,0.000000000,-0.251264662,-0.529267907,-0.008502826,-0.010987740,0.006643715,0.004897114,-0.009492125,-0.251264662,0.100000001,3.000000000,0.000000000,0.000000000,0.010000001,0.150988117,0.166036114,0.086376399,0.053949416,0.010089258,1.000000000,18.000000000,0.013122262,0.251355231,47.397971131,8.546163744,4148000.000000000,0.000060038,1764161882695095.000000000,1764161882691095.000000000,-2.578095675,1.000000000,1.000000000,-0.005257335,3.000000000,-0.016789885,0.000971226,2.000000000,3.438989401,1.000000000,4.000000000,1.000000000,3.541054487,0.034025207,-0.005946604,1.000000000,3.000000000,1.000000000
1764161882.790811,0.000093423,-0.004291538,0.002983492,0.000000000,-0.251264662,-0.529267907,-0.008502826,-0.010987740,0.006643715,0.004897114,-0.009492125,-0.251264662,0.100000001,3.000000000,0.000000000,0.000000000,0.010000001,0.151401564,0.166296080,0.086677365,0.054026414,0.010082819,1.000000000,18.000000000,0.013123039,0.251355231,47.397971131,8.546163744,4148000.000000000,0.000060083,1764161882703095.000000000,1764161882699095.000000000,-2.578102112,1.000000000,1.000000000,-0.005396629,3.000000000,-0.016839219,0.001015228,2.000000000,3.438832998,1.000000000,4.000000000,1.000000000,3.540926456,0.034038618,-0.005832824,1.000000000,3.000000000,1.000000000
1764161882.803159,-0.004507095,-0.002725643,0.000401866,0.000000000,-0.251264662,-0.529267907,-0.008502826,-0.010987740,0.006643715,0.004897114,-0.009492125,-0.251264662,0.100000001,3.000000000,0.000000000,0.000000000,0.010000001,0.151817292,0.166556790,0.086976595,0.054103315,0.010079485,1.000000000,18.000000000,0.013113808,0.251355231,47.397971131,8.546163744,4148000.000000000,0.000060125,1764161882711095.000000000,1764161882707095.000000000,-2.578105450,1.000000000,1.000000000,-0.005569278,3.000000000,-0.016875584,0.001038021,2.000000000,3.438676596,1.000000000,4.000000000,1.000000000,3.540797949,0.034052491,-0.005740895,1.000000000,3.000000000,1.000000000
1764161882.810961,-0.003726021,0.003326677,0.000668690,0.000000000,-0.251264662,-0.529267907,-0.008502826,-0.010987740,0.006643715,0.004897114,-0.009492125,-0.251264662,0.100000001,3.000000000,0.000000000,0.000000000,0.010000001,0.150939658,0.166106611,0.086342223,0.053952567,0.010081571,1.000000000,18.000000000,0.013115346,0.251355231,47.397971131,8.546163744,4148000.000000000,0.000060032,1764161882727095.000000000,1764161882723095.000000000,-2.578102112,1.000000000,1.000000000,-0.005861271,3.000000000,-0.016899629,0.001055112,2.000000000,3.438365221,1.000000000,4.000000000,1.000000000,3.540576696,0.034069598,-0.005599166,1.000000000,3.000000000,1.000000000
1764161882.823055,-0.005547397,-0.004921850,0.003945082,0.000000000,-0.251264662,-0.529267907,-0.008502826,-0.010987740,0.006643715,0.004897114,-0.009492125,-0.251264662,0.100000001,3.000000000,0.000000000,0.000000000,0.010000001,0.151352808,0.166366652,0.086643197,0.054029562,0.010079710,1.000000000,18.000000000,0.013116118,0.251355231,47.397971131,8.546163744,4148000.000000000,0.000060076,1764161882735095.000000000,1764161882731095.000000000,-2.578103304,1.000000000,1.000000000,-0.006038628,3.000000000,-0.016940612,0.001103186,2.000000000,3.438210011,1.000000000,4.000000000,1.000000000,3.540465117,0.034079015,-0.005489411,1.000000000,3.000000000,1.000000000
1764161882.831647,-0.000738826,-0.000864569,-0.002537854,0.000000000,-0.251264662,-0.529267907,-0.008502826,-0.010987740,0.006643715,0.004897114,-0.009492125,-0.251264662,0.100000001,3.000000000,0.000000000,0.000000000,0.010000001,0.151768595,0.166440621,0.086944439,0.054084387,0.010079726,1.000000000,18.000000000,0.013116891,0.251355231,47.397971131,8.546163744,4148000.000000000,0.000060121,1764161882743095.000000000,1764161882739095.000000000,-2.578102589,1.000000000,1.000000000,-0.006174049,3.000000000,-0.016948996,0.001098417,2.000000000,3.438054800,1.000000000,4.000000000,1.000000000,3.540352583,0.034086257,-0.005435656,1.000000000,3.000000000,1.000000000
1764161882.843114,-0.001501827,-0.005716498,0.002170913,0.000000000,-0.251264662,-0.529267907,-0.008502826,-0.010987740,0.006643715,0.004897114,-0.009492125,-0.251264662,0.100000001,3.000000000,0.000000000,0.000000000,0.010000001,0.152187064,0.166701838,0.087245859,0.054161213,0.010074981,1.000000000,18.000000000,0.013117666,0.251355231,47.397971131,8.546163744,4148000.000000000,0.000060166,1764161882751095.000000000,1764161882747095.000000000,-2.578106642,1.000000000,1.000000000,-0.006312187,3.000000000,-0.016996060,0.001130892,2.000000000,3.437900305,1.000000000,4.000000000,1.000000000,3.540239096,0.034094095,-0.005344991,1.000000000,3.000000000,1.000000000
1764161882.851297,0.000037868,0.001892149,-0.003683846,0.000000000,-0.251264662,-0.529267907,-0.008502826,-0.010987740,0.006643715,0.004897114,-0.009492125,-0.251264662,0.100000001,3.000000000,0.000000000,0.000000000,0.010000001,0.150884852,0.165989816,0.086299345,0.053932216,0.010071077,1.000000000,18.000000000,0.013118434,0.251355231,47.397971131,8.546163744,4148000.000000000,0.000060025,1764161882759095.000000000,1764161882755095.000000000,-2.578109980,1.000000000,1.000000000,-0.006432837,3.000000000,-0.016984474,0.001113163,2.000000000,3.437759638,1.000000000,4.000000000,1.000000000,3.540128946,0.034092054,-0.005315405,1.000000000,3.000000000,1.000000000
1764161882.863874,-0.005691545,-0.006542821,0.005199573,0.000000000,-0.251264662,-0.529267907,-0.008502826,-0.010987740,0.006643715,0.004897114,-0.009492125,-0.251264662,0.100000001,3.000000000,0.000000000,0.000000000,0.010000001,0.151713058,0.166510180,0.086901508,0.054086156,0.010076407,1.000000000,18.000000000,0.013119985,0.251355231,47.397971131,8.546163744,4148000.000000000,0.000060115,1764161882775095.000000000,1764161882771095.000000000,-2.578103304,1.000000000,1.000000000,-0.006702869,3.000000000,-0.017095430,0.001167481,2.000000000,3.437479019,1.000000000,4.000000000,1.000000000,3.539905548,0.034089983,-0.005166390,1.000000000,3.000000000,1.000000000
1764161882.871566,-0.001608911,-0.006377678,0.005063135,0.000000000,-0.251264662,-0.529267907,-0.008502826,-0.010987740,0.006643715,0.004897114,-0.009492125,-0.251264662,0.100000001,3.000000000,0.000000000,0.000000000,0.010000001,0.152131155,0.166771457,0.087202959,0.054162979,0.010080890,1.000000000,18.000000000,0.013120761,0.251355231,47.397971131,8.546163744,4148000.000000000,0.000060160,1764161882783095.000000000,1764161882779095.000000000,-2.578098059,1.000000000,1.000000000,-0.006827434,3.000000000,-0.017149447,0.001218801,2.000000000,3.437338591,1.000000000,4.000000000,1.000000000,3.539792299,0.034090474,-0.005067713,1.000000000,3.000000000,1.000000000
1764161882.884111,-0.001051161,-0.002977525,0.002472196,0.000000000,-0.251264662,-0.529267907,-0.008502826,-0.010987740,0.006643715,0.004897114,-0.009492125,-0.251264662,0.100000001,3.000000000,0.000000000,0.000000000,0.010000001,0.150831103,0.166058362,0.086258158,0.053933848,0.010082868,1.000000000,18.000000000,0.013121528,0.251355231,47.397971131,8.546163744,4148000.000000000,0.000060020,1764161882791095.000000000,1764161882787095.000000000,-2.578095436,1.000000000,1.000000000,-0.006945733,3.000000000,-0.017183093,0.001249408,2.000000000,3.437207699,1.000000000,4.000000000,1.000000000,3.539677382,0.034083694,-0.004997858,1.000000000,3.000000000,1.000000000
1764161882.891877,-0.005982994,-0.005432466,0.000490341,0.000000000,-0.251264662,-0.529267907,-0.008502826,-0.010987740,0.006643715,0.004897114,-0.009492125,-0.251264662,0.100000001,3.000000000,0.000000000,0.000000000,0.010000001,0.151243523,0.166318253,0.086558759,0.054010864,0.010085995,1.000000000,18.000000000,0.013122298,0.251355231,47.397971131,8.546163744,4148000.000000000,0.000060064,1764161882799095.000000000,1764161882795095.000000000,-2.578091860,1.000000000,1.000000000,-0.007100593,3.000000000,-0.017236028,0.001263866,2.000000000,3.437076807,1.000000000,4.000000000,1.000000000,3.539561510,0.034077913,-0.004943888,1.000000000,3.000000000,1.000000000
1764161882.904104,0.001974207,-0.001907920,-0.006022397,0.000000000,-0.251264662,-0.529267907,-0.008502826,-0.010987740,0.006643715,0.004897114,-0.009492125,-0.251264662,0.100000001,3.000000000,0.000000000,0.000000000,0.010000001,0.152076319,0.166653275,0.087161236,0.054142594,0.010082622,1.000000000,18.000000000,0.013123842,0.251355231,47.397971131,8.546163744,4148000.000000000,0.000060154,1764161882815095.000000000,1764161882811095.000000000,-2.578094006,1.000000000,1.000000000,-0.007322222,3.000000000,-0.017316040,0.001235661,2.000000000,3.436813831,1.000000000,4.000000000,1.000000000,3.539326429,0.034064323,-0.004896919,1.000000000,3.000000000,1.000000000
1764161882.912401,-0.003931396,0.004541052,-0.005267560,0.000000000,-0.251264662,-0.529267907,-0.008502826,-0.010987740,0.006643715,0.004897114,-0.009492125,-0.251264662,0.100000001,3.000000000,0.000000000,0.000000000,0.010000001,0.150778383,0.165942088,0.086218469,0.053913970,0.010084065,1.000000000,18.000000000,0.013124611,0.251355231,47.397971131,8.546163744,4148000.000000000,0.000060014,1764161882823095.000000000,1764161882819095.000000000,-2.578092098,1.000000000,1.000000000,-0.007452748,3.000000000,-0.017282417,0.001200446,2.000000000,3.436694860,1.000000000,4.000000000,1.000000000,3.539219618,0.034047097,-0.004905533,1.000000000,3.000000000,1.000000000
1764161882.924071,-0.000804583,-0.002202687,-0.000119209,0.000000000,-0.251264662,-0.529267907,-0.008502826,-0.010987740,0.006643715,0.004897114,-0.009492125,-0.251264662,0.100000001,3.000000000,0.000000000,0.000000000,0.010000001,0.151190445,0.166201741,0.086519256,0.053991009,0.010084556,1.000000000,18.000000000,0.013125383,0.251355231,47.397971131,8.546163744,4148000.000000000,0.000060059,1764161882831095.000000000,1764161882827095.000000000,-2.578091145,1.000000000,1.000000000,-0.007555629,3.000000000,-0.017302582,0.001206237,2.000000000,3.436575651,1.000000000,4.000000000,1.000000000,3.539112329,0.034030885,-0.004872476,1.000000000,3.000000000,1.000000000
1764161882.933377,-0.004559606,-0.007018818,0.001722015,0.000000000,-0.251264662,-0.529267907,-0.008502826,-0.010987740,0.006643715,0.004897114,-0.009492125,-0.251264662,0.100000001,3.000000000,0.000000000,0.000000000,0.010000001,0.152022555,0.166723236,0.087121829,0.054144800,0.010080868,1.000000000,18.000000000,0.013126937,0.251355231,47.397971131,8.546163744,4148000.000000000,0.000060148,1764161882847095.000000000,1764161882843095.000000000,-2.578093529,1.000000000,1.000000000,-0.007754994,3.000000000,-0.017416181,0.001220463,2.000000000,3.436336279,1.000000000,4.000000000,1.000000000,3.538893700,0.034001499,-0.004801844,1.000000000,3.000000000,1.000000000
1764161882.944488,-0.008749066,-0.004334390,-0.004703644,0.000000000,-0.251264662,-0.529267907,-0.008502826,-0.010987740,0.006643715,0.004897114,-0.009492125,-0.251264662,0.100000001,3.000000000,0.000000000,0.000000000,0.010000001,0.150726676,0.166010991,0.086180605,0.053916037,0.010085969,1.000000000,18.000000000,0.013127707,0.251355231,47.397971131,8.546163744,4148000.000000000,0.000060009,1764161882855095.000000000,1764161882851095.000000000,-2.578087807,1.000000000,1.000000000,-0.007904099,3.000000000,-0.017442070,0.001185820,2.000000000,3.436236143,1.000000000,4.000000000,1.000000000,3.538802862,0.033976480,-0.004819442,1.000000000,3.000000000,1.000000000
1764161882.952866,-0.008521365,-0.005266570,-0.000449829,0.000000000,-0.251264662,-0.529267907,-0.008502826,-0.010987740,0.006643715,0.004897114,-0.009492125,-0.251264662,0.100000001,3.000000000,0.000000000,0.000000000,0.010000001,0.151138410,0.166085094,0.086481333,0.053971227,0.010089943,1.000000000,18.000000000,0.013128481,0.251355231,47.397971131,8.546163744,4148000.000000000,0.000060054,1764161882863095.000000000,1764161882859095.000000000,-2.578083277,1.000000000,1.000000000,-0.008049256,3.000000000,-0.017475570,0.001186220,2.000000000,3.436135054,1.000000000,4.000000000,1.000000000,3.538710594,0.033958107,-0.004795409,1.000000000,3.000000000,1.000000000
1764161882.965104,-0.007183083,-0.003415851,-0.006625428,0.000000000,-0.251264662,-0.529267907,-0.008502826,-0.010987740,0.006643715,0.004897114,-0.009492125,-0.251264662,0.100000001,3.000000000,0.000000000,0.000000000,0.010000001,0.151552781,0.166345254,0.086782463,0.054048195,0.010092244,1.000000000,18.000000000,0.013129255,0.251355231,47.397971131,8.546163744,4148000.000000000,0.000060098,1764161882871095.000000000,1764161882867095.000000000,-2.578080416,1.000000000,1.000000000,-0.008181627,3.000000000,-0.017494420,0.001137118,2.000000000,3.436032772,1.000000000,4.000000000,1.000000000,3.538616896,0.033940613,-0.004820146,1.000000000,3.000000000,1.000000000
1764161882.973224,0.000998829,-0.004844685,-0.000700820,0.000000000,-0.251264662,-0.529267907,-0.008502826,-0.010987740,0.006643715,0.004897114,-0.009492125,-0.251264662,0.100000001,3.000000000,0.000000000,0.000000000,0.010000001,0.151969820,0.166606158,0.087083809,0.054125063,0.010090439,1.000000000,18.000000000,0.013130029,0.251355231,47.397971131,8.546163744,4148000.000000000,0.000060143,1764161882879095.000000000,1764161882875095.000000000,-2.578081846,1.000000000,1.000000000,-0.008246509,3.000000000,-0.017524848,0.001135317,2.000000000,3.435930014,1.000000000,4.000000000,1.000000000,3.538522005,0.033923894,-0.004796882,1.000000000,3.000000000,1.000000000
1764161882.985665,-0.003725086,-0.004641930,-0.001488253,0.000000000,-0.251264662,-0.529267907,-0.008502826,-0.010987740,0.006643715,0.004897114,-0.009492125,-0.251264662,0.100000001,3.000000000,0.000000000,0.000000000,0.010000001,0.151087359,0.166155294,0.086444996,0.053973857,0.010088642,1.000000000,18.000000000,0.013131574,0.251355231,47.397971131,8.546163744,4148000.000000000,0.000060049,1764161882895095.000000000,1764161882891095.000000000,-2.578082800,1.000000000,1.000000000,-0.008484431,3.000000000,-0.017553655,0.001114429,2.000000000,3.435765266,1.000000000,4.000000000,1.000000000,3.538356781,0.033879668,-0.004779644,1.000000000,3.000000000,1.000000000
1764161882.993092,-0.004095902,-0.002750999,-0.006291549,0.000000000,-0.251264662,-0.529267907,-0.008502826,-0.010987740,0.006643715,0.004897114,-0.009492125,-0.251264662,0.100000001,3.000000000,0.000000000,0.000000000,0.010000001,0.151501417,0.166415527,0.086745977,0.054050822,0.010092436,1.000000000,18.000000000,0.013132351,0.251355231,47.397971131,8.546163744,4148000.000000000,0.000060094,1764161882903095.000000000,1764161882899095.000000000,-2.578078508,1.000000000,1.000000000,-0.008576476,3.000000000,-0.017562862,0.001064945,2.000000000,3.435680866,1.000000000,4.000000000,1.000000000,3.538271904,0.033859029,-0.004808772,1.000000000,3.000000000,1.000000000
1764161883.005542,-0.008664432,-0.000627402,0.004862900,0.000000000,-0.251264662,-0.529267907,-0.008502826,-0.010987740,0.006643715,0.004897114,-0.009492125,-0.251264662,0.100000001,3.000000000,0.000000000,0.000000000,0.010000001,0.151917771,0.166676491,0.087045468,0.054127686,0.010093131,1.000000000,18.000000000,0.013123123,0.251355231,47.397971131,8.546163744,4148000.000000000,0.000060136,1764161882911095.000000000,1764161882907095.000000000,-2.578077316,1.000000000,1.000000000,-0.008703204,3.000000000,-0.017555255,0.001104690,2.000000000,3.435595751,1.000000000,4.000000000,1.000000000,3.538185596,0.033839241,-0.004747856,1.000000000,3.000000000,1.000000000
1764161883.014033,0.000405918,-0.004246143,0.002993271,0.000000000,-0.251264662,-0.529267907,-0.008502826,-0.010987740,0.006643715,0.004897114,-0.009492125,-0.251264662,0.100000001,3.000000000,0.000000000,0.000000000,0.010000001,0.150625870,0.165965050,0.086107694,0.053899270,0.010094993,1.000000000,18.000000000,0.013123892,0.251355231,47.397971131,8.546163744,4148000.000000000,0.000059997,1764161882919095.000000000,1764161882915095.000000000,-2.578075647,1.000000000,1.000000000,-0.008753843,3.000000000,-0.017572664,0.001128282,2.000000000,3.435524702,1.000000000,4.000000000,1.000000000,3.538109779,0.033816591,-0.004706673,1.000000000,3.000000000,1.000000000
1764161883.025585,-0.003977220,-0.004855395,0.000595581,0.000000000,-0.251264662,-0.529267907,-0.008502826,-0.010987740,0.006643715,0.004897114,-0.009492125,-0.251264662,0.100000001,3.000000000,0.000000000,0.000000000,0.010000001,0.151450694,0.166299179,0.086709119,0.054031502,0.010098302,1.000000000,18.000000000,0.013125440,0.251355231,47.397971131,8.546163744,4148000.000000000,0.000060087,1764161882935095.000000000,1764161882931095.000000000,-2.578072786,1.000000000,1.000000000,-0.008915351,3.000000000,-0.017643966,0.001062311,2.000000000,3.435378790,1.000000000,4.000000000,1.000000000,3.537952662,0.033758134,-0.004750682,1.000000000,3.000000000,1.000000000
1764161883.034230,0.001541313,-0.008705901,-0.000527594,0.000000000,-0.251264662,-0.529267907,-0.008502826,-0.010987740,0.006643715,0.004897114,-0.009492125,-0.251264662,0.100000001,3.000000000,0.000000000,0.000000000,0.010000001,0.151867077,0.166559920,0.087010354,0.054108392,0.010091531,1.000000000,18.000000000,0.013126216,0.251355231,47.397971131,8.546163744,4148000.000000000,0.000060132,1764161882943095.000000000,1764161882939095.000000000,-2.578079700,1.000000000,1.000000000,-0.008952480,3.000000000,-0.017698167,0.001056349,2.000000000,3.435304403,1.000000000,4.000000000,1.000000000,3.537871122,0.033730626,-0.004743985,1.000000000,3.000000000,1.000000000
1764161883.046598,-0.001430577,-0.006540453,-0.003895722,0.000000000,-0.251264662,-0.529267907,-0.008502826,-0.010987740,0.006643715,0.004897114,-0.009492125,-0.251264662,0.100000001,3.000000000,0.000000000,0.000000000,0.010000001,0.150577098,0.165850356,0.086074099,0.053880464,0.010092346,1.000000000,18.000000000,0.013126984,0.251355231,47.397971131,8.546163744,4148000.000000000,0.000059993,1764161882951095.000000000,1764161882947095.000000000,-2.578079224,1.000000000,1.000000000,-0.009000370,3.000000000,-0.017724238,0.001024949,2.000000000,3.435252190,1.000000000,4.000000000,1.000000000,3.537806034,0.033707306,-0.004758463,1.000000000,3.000000000,1.000000000
1764161883.054312,-0.003598044,0.001468928,0.000432599,0.000000000,-0.251264662,-0.529267907,-0.008502826,-0.010987740,0.006643715,0.004897114,-0.009492125,-0.251264662,0.100000001,3.000000000,0.000000000,0.000000000,0.010000001,0.151401326,0.166369766,0.086675800,0.054034531,0.010100830,1.000000000,18.000000000,0.013128536,0.251355231,47.397971131,8.546163744,4148000.000000000,0.000060083,1764161882967095.000000000,1764161882963095.000000000,-2.578071594,1.000000000,1.000000000,-0.009133866,3.000000000,-0.017722450,0.001007870,2.000000000,3.435143471,1.000000000,4.000000000,1.000000000,3.537669420,0.033663332,-0.004739004,1.000000000,3.000000000,1.000000000
1764161883.067421,0.000535187,-0.005078200,-0.004833098,0.000000000,-0.251264662,-0.529267907,-0.008502826,-0.010987740,0.006643715,0.004897114,-0.009492125,-0.251264662,0.100000001,3.000000000,0.000000000,0.000000000,0.010000001,0.151817411,0.166630581,0.086977147,0.054111417,0.010106566,1.000000000,18.000000000,0.013129312,0.251355231,47.397971131,8.546163744,4148000.000000000,0.000060127,1764161882975095.000000000,1764161882971095.000000000,-2.578066111,1.000000000,1.000000000,-0.009162900,3.000000000,-0.017738696,0.000969041,2.000000000,3.435086966,1.000000000,4.000000000,1.000000000,3.537598610,0.033642679,-0.004758289,1.000000000,3.000000000,1.000000000
1764161883.074138,-0.001382184,-0.001546512,0.000950415,0.000000000,-0.251264662,-0.529267907,-0.008502826,-0.010987740,0.006643715,0.004897114,-0.009492125,-0.251264662,0.100000001,3.000000000,0.000000000,0.000000000,0.010000001,0.150529265,0.165735498,0.086042382,0.053861711,0.010110606,1.000000000,18.000000000,0.013130075,0.251355231,47.397971131,8.546163744,4148000.000000000,0.000059989,1764161882983095.000000000,1764161882979095.000000000,-2.578062534,1.000000000,1.000000000,-0.009198046,3.000000000,-0.017714698,0.000976643,2.000000000,3.435048580,1.000000000,4.000000000,1.000000000,3.537549973,0.033621624,-0.004731629,1.000000000,3.000000000,1.000000000
1764161883.087308,0.001701490,-0.002797511,-0.003414694,0.000000000,-0.251264662,-0.529267907,-0.008502826,-0.010987740,0.006643715,0.004897114,-0.009492125,-0.251264662,0.100000001,3.000000000,0.000000000,0.000000000,0.010000001,0.151352912,0.166254506,0.086643912,0.054015826,0.010115956,1.000000000,18.000000000,0.013131627,0.251355231,47.397971131,8.546163744,4148000.000000000,0.000060078,1764161882999095.000000000,1764161882995095.000000000,-2.578058243,1.000000000,1.000000000,-0.009219675,3.000000000,-0.017719204,0.000919840,2.000000000,3.434967279,1.000000000,4.000000000,1.000000000,3.537445545,0.033582062,-0.004747900,1.000000000,3.000000000,1.000000000
1764161883.094259,-0.007189482,-0.007594255,-0.002096873,0.000000000,-0.251264662,-0.529267907,-0.008502826,-0.010987740,0.006643715,0.004897114,-0.009492125,-0.251264662,0.100000001,3.000000000,0.000000000,0.000000000,0.010000001,0.151768729,0.166515097,0.086945251,0.054092739,0.010108584,1.000000000,18.000000000,0.013132403,0.251355231,47.397971131,8.546163744,4148000.000000000,0.000060123,1764161883007095.000000000,1764161883003095.000000000,-2.578066349,1.000000000,1.000000000,-0.009299058,3.000000000,-0.017746262,0.000903113,2.000000000,3.434924603,1.000000000,4.000000000,1.000000000,3.537390232,0.033563465,-0.004743219,1.000000000,3.000000000,1.000000000
1764161883.106533,-0.000920081,-0.004811514,-0.001413282,0.000000000,-0.251264662,-0.529267907,-0.008502826,-0.010987740,0.006643715,0.004897114,-0.009492125,-0.251264662,0.100000001,3.000000000,0.000000000,0.000000000,0.010000001,0.152187198,0.166776434,0.087246820,0.054169551,0.010106344,1.000000000,18.000000000,0.013133174,0.251355231,47.397971131,8.546163744,4148000.000000000,0.000060168,1764161883015095.000000000,1764161883011095.000000000,-2.578069210,1.000000000,1.000000000,-0.009327573,3.000000000,-0.017751899,0.000891871,2.000000000,3.434880495,1.000000000,4.000000000,1.000000000,3.537332535,0.033545554,-0.004732337,1.000000000,3.000000000,1.000000000
1764161883.115733,0.000041920,-0.008382278,-0.005979556,0.000000000,-0.251264662,-0.529267907,-0.008502826,-0.010987740,0.006643715,0.004897114,-0.009492125,-0.251264662,0.100000001,3.000000000,0.000000000,0.000000000,0.010000001,0.150884971,0.166063219,0.086300313,0.053940296,0.010110077,1.000000000,18.000000000,0.013133940,0.251355231,47.397971131,8.546163744,4148000.000000000,0.000060028,1764161883023095.000000000,1764161883019095.000000000,-2.578066111,1.000000000,1.000000000,-0.009332213,3.000000000,-0.017773867,0.000847688,2.000000000,3.434862137,1.000000000,4.000000000,1.000000000,3.537295580,0.033535093,-0.004746704,1.000000000,3.000000000,1.000000000
1764161883.126650,-0.007018079,-0.002665663,0.003140419,0.000000000,-0.251264662,-0.529267907,-0.008502826,-0.010987740,0.006643715,0.004897114,-0.009492125,-0.251264662,0.100000001,3.000000000,0.000000000,0.000000000,0.010000001,0.151297748,0.166323155,0.086601198,0.054017302,0.010110226,1.000000000,18.000000000,0.013134712,0.251355231,47.397971131,8.546163744,4148000.000000000,0.000060072,1764161883031095.000000000,1764161883027095.000000000,-2.578066826,1.000000000,1.000000000,-0.009393061,3.000000000,-0.017751250,0.000876376,2.000000000,3.434842110,1.000000000,4.000000000,1.000000000,3.537255764,0.033525184,-0.004687786,1.000000000,3.000000000,1.000000000
1764161883.135615,-0.003207915,-0.002679848,-0.000463333,0.000000000,-0.251264662,-0.529267907,-0.008502826,-0.010987740,0.006643715,0.004897114,-0.009492125,-0.251264662,0.100000001,3.000000000,0.000000000,0.000000000,0.010000001,0.152131274,0.166657671,0.087203965,0.054148812,0.010115745,1.000000000,18.000000000,0.013136260,0.251355231,47.397971131,8.546163744,4148000.000000000,0.000060162,1764161883047404.000000000,1764161883043404.000000000,-2.578063250,1.000000000,1.000000000,-0.009475696,3.000000000,-0.017710976,0.000878017,2.000000000,3.434796095,1.000000000,4.000000000,1.000000000,3.537169933,0.033490300,-0.004642243,1.000000000,3.000000000,1.000000000
1764161883.147358,-0.003442383,-0.000046883,-0.003808178,0.000000000,-0.251264662,-0.529267907,-0.008502826,-0.010987740,0.006643715,0.004897114,-0.009492125,-0.251264662,0.100000001,3.000000000,0.000000000,0.000000000,0.010000001,0.150831208,0.165946379,0.086259320,0.053920075,0.010120382,1.000000000,18.000000000,0.013137027,0.251355231,47.397971131,8.546163744,4148000.000000000,0.000060022,1764161883055404.000000000,1764161883051404.000000000,-2.578059435,1.000000000,1.000000000,-0.009490328,3.000000000,-0.017650431,0.000846467,2.000000000,3.434799194,1.000000000,4.000000000,1.000000000,3.537153721,0.033466056,-0.004659041,1.000000000,3.000000000,1.000000000
1764161883.155110,0.000181259,-0.004804762,-0.000830274,0.000000000,-0.251264662,-0.529267907,-0.008502826,-0.010987740,0.006643715,0.004897114,-0.009492125,-0.251264662,0.100000001,3.000000000,0.000000000,0.000000000,0.010000001,0.151243627,0.166206077,0.086560033,0.053997107,0.010117639,1.000000000,18.000000000,0.013137801,0.251355231,47.397971131,8.546163744,4148000.000000000,0.000060066,1764161883063404.000000000,1764161883059404.000000000,-2.578063011,1.000000000,1.000000000,-0.009476163,3.000000000,-0.017629523,0.000838789,2.000000000,3.434800625,1.000000000,4.000000000,1.000000000,3.537134886,0.033442661,-0.004651053,1.000000000,3.000000000,1.000000000
1764161883.168136,-0.008939281,0.002016834,0.003770459,0.000000000,-0.251264662,-0.529267907,-0.008502826,-0.010987740,0.006643715,0.004897114,-0.009492125,-0.251264662,0.100000001,3.000000000,0.000000000,0.000000000,0.010000001,0.152076438,0.166727677,0.087162785,0.054150879,0.010112920,1.000000000,18.000000000,0.013139348,0.251355231,47.397971131,8.546163744,4148000.000000000,0.000060156,1764161883079404.000000000,1764161883075404.000000000,-2.578069687,1.000000000,1.000000000,-0.009592035,3.000000000,-0.017532328,0.000891995,2.000000000,3.434796095,1.000000000,4.000000000,1.000000000,3.537089586,0.033399299,-0.004563918,1.000000000,3.000000000,1.000000000
1764161883.175189,-0.000101976,-0.000352011,-0.000729691,0.000000000,-0.251264662,-0.529267907,-0.008502826,-0.010987740,0.006643715,0.004897114,-0.009492125,-0.251264662,0.100000001,3.000000000,0.000000000,0.000000000,0.010000001,0.150778487,0.166015312,0.086219825,0.053922005,0.010123375,1.000000000,18.000000000,0.013140115,0.251355231,47.397971131,8.546163744,4148000.000000000,0.000060016,1764161883087404.000000000,1764161883083404.000000000,-2.578060150,1.000000000,1.000000000,-0.009560082,3.000000000,-0.017475720,0.000881448,2.000000000,3.434824228,1.000000000,4.000000000,1.000000000,3.537072897,0.033375606,-0.004560245,1.000000000,3.000000000,1.000000000
1764161883.187617,-0.002050903,0.000297077,0.009533483,0.000000000,-0.251264662,-0.529267907,-0.008502826,-0.010987740,0.006643715,0.004897114,-0.009492125,-0.251264662,0.100000001,3.000000000,0.000000000,0.000000000,0.010000001,0.151190564,0.166275069,0.086520635,0.053999033,0.010127249,1.000000000,18.000000000,0.013140893,0.251355231,47.397971131,8.546163744,4148000.000000000,0.000060061,1764161883095404.000000000,1764161883091404.000000000,-2.578057289,1.000000000,1.000000000,-0.009544436,3.000000000,-0.017415453,0.000953159,2.000000000,3.434849977,1.000000000,4.000000000,1.000000000,3.537053823,0.033353269,-0.004473403,1.000000000,3.000000000,1.000000000
1764161883.196056,-0.005092744,-0.002449225,-0.004768371,0.000000000,-0.251264662,-0.529267907,-0.008502826,-0.010987740,0.006643715,0.004897114,-0.009492125,-0.251264662,0.100000001,3.000000000,0.000000000,0.000000000,0.010000001,0.151605278,0.166349068,0.086821832,0.054053951,0.010127653,1.000000000,18.000000000,0.013141670,0.251355231,47.397971131,8.546163744,4148000.000000000,0.000060106,1764161883103404.000000000,1764161883099404.000000000,-2.578058004,1.000000000,1.000000000,-0.009553812,3.000000000,-0.017378647,0.000911865,2.000000000,3.434873104,1.000000000,4.000000000,1.000000000,3.537032127,0.033338428,-0.004492145,1.000000000,3.000000000,1.000000000
1764161883.207471,0.000125496,-0.000990323,0.001662411,0.000000000,-0.251264662,-0.529267907,-0.008502826,-0.010987740,0.006643715,0.004897114,-0.009492125,-0.251264662,0.100000001,3.000000000,0.000000000,0.000000000,0.010000001,0.152022287,0.166610003,0.087121405,0.054130815,0.010132987,1.000000000,18.000000000,0.013132445,0.251355231,47.397971131,8.546163744,4148000.000000000,0.000060148,1764161883111404.000000000,1764161883107404.000000000,-2.578053951,1.000000000,1.000000000,-0.009521993,3.000000000,-0.017331611,0.000922125,2.000000000,3.434894085,1.000000000,4.000000000,1.000000000,3.537008286,0.033324242,-0.004458725,1.000000000,3.000000000,1.000000000
1764161883.215703,-0.006653921,-0.005210542,0.003046356,0.000000000,-0.251264662,-0.529267907,-0.008502826,-0.010987740,0.006643715,0.004897114,-0.009492125,-0.251264662,0.100000001,3.000000000,0.000000000,0.000000000,0.010000001,0.151138157,0.166159078,0.086481065,0.053979497,0.010129082,1.000000000,18.000000000,0.013133988,0.251355231,47.397971131,8.546163744,4148000.000000000,0.000060054,1764161883127404.000000000,1764161883123404.000000000,-2.578058481,1.000000000,1.000000000,-0.009495322,3.000000000,-0.017351797,0.000918611,2.000000000,3.434978962,1.000000000,4.000000000,1.000000000,3.536954403,0.033280671,-0.004432532,1.000000000,3.000000000,1.000000000
1764161883.227377,0.001730088,-0.000669257,0.006735790,0.000000000,-0.251264662,-0.529267907,-0.008502826,-0.010987740,0.006643715,0.004897114,-0.009492125,-0.251264662,0.100000001,3.000000000,0.000000000,0.000000000,0.010000001,0.151552528,0.166419357,0.086782090,0.054056451,0.010132877,1.000000000,18.000000000,0.013134760,0.251355231,47.397971131,8.546163744,4148000.000000000,0.000060098,1764161883135404.000000000,1764161883131404.000000000,-2.578054905,1.000000000,1.000000000,-0.009442318,3.000000000,-0.017310370,0.000963946,2.000000000,3.435017109,1.000000000,4.000000000,1.000000000,3.536923885,0.033260539,-0.004371061,1.000000000,3.000000000,1.000000000
1764161883.235934,-0.001629156,0.000189382,-0.001903158,0.000000000,-0.251264662,-0.529267907,-0.008502826,-0.010987740,0.006643715,0.004897114,-0.009492125,-0.251264662,0.100000001,3.000000000,0.000000000,0.000000000,0.010000001,0.151969567,0.166680366,0.087083548,0.054133311,0.010138151,1.000000000,18.000000000,0.013135532,0.251355231,47.397971131,8.546163744,4148000.000000000,0.000060143,1764161883143404.000000000,1764161883139404.000000000,-2.578049898,1.000000000,1.000000000,-0.009417061,3.000000000,-0.017263271,0.000940433,2.000000000,3.435053110,1.000000000,4.000000000,1.000000000,3.536890984,0.033241421,-0.004377627,1.000000000,3.000000000,1.000000000
1764161883.248324,-0.001905639,-0.003917670,-0.010402872,0.000000000,-0.251264662,-0.529267907,-0.008502826,-0.010987740,0.006643715,0.004897114,-0.009492125,-0.251264662,0.100000001,3.000000000,0.000000000,0.000000000,0.010000001,0.151087120,0.166228443,0.086444899,0.053981844,0.010154312,1.000000000,18.000000000,0.013137068,0.251355231,47.397971131,8.546163744,4148000.000000000,0.000060049,1764161883159404.000000000,1764161883155404.000000000,-2.578034401,1.000000000,1.000000000,-0.009356921,3.000000000,-0.017210390,0.000839474,2.000000000,3.435166597,1.000000000,4.000000000,1.000000000,3.536817551,0.033179194,-0.004469572,1.000000000,3.000000000,1.000000000
1764161883.255916,-0.008671060,-0.002185370,-0.000777189,0.000000000,-0.251264662,-0.529267907,-0.008502826,-0.010987740,0.006643715,0.004897114,-0.009492125,-0.251264662,0.100000001,3.000000000,0.000000000,0.000000000,0.010000001,0.151501179,0.166302443,0.086745948,0.054036815,0.010156028,1.000000000,18.000000000,0.013137840,0.251355231,47.397971131,8.546163744,4148000.000000000,0.000060093,1764161883167404.000000000,1764161883163404.000000000,-2.578032970,1.000000000,1.000000000,-0.009379693,3.000000000,-0.017191682,0.000821295,2.000000000,3.435218811,1.000000000,4.000000000,1.000000000,3.536777258,0.033165589,-0.004464662,1.000000000,3.000000000,1.000000000
1764161883.268563,-0.009426541,-0.003631870,-0.002586283,0.000000000,-0.251264662,-0.529267907,-0.008502826,-0.010987740,0.006643715,0.004897114,-0.009492125,-0.251264662,0.100000001,3.000000000,0.000000000,0.000000000,0.010000001,0.151917890,0.166563228,0.087047428,0.054113697,0.010153347,1.000000000,18.000000000,0.013138612,0.251355231,47.397971131,8.546163744,4148000.000000000,0.000060138,1764161883175404.000000000,1764161883171404.000000000,-2.578036070,1.000000000,1.000000000,-0.009409573,3.000000000,-0.017185465,0.000789005,2.000000000,3.435267687,1.000000000,4.000000000,1.000000000,3.536735058,0.033152387,-0.004473314,1.000000000,3.000000000,1.000000000
1764161883.275959,-0.005496163,-0.006020273,-0.000046566,0.000000000,-0.251264662,-0.529267907,-0.008502826,-0.010987740,0.006643715,0.004897114,-0.009492125,-0.251264662,0.100000001,3.000000000,0.000000000,0.000000000,0.010000001,0.150625974,0.165853575,0.086109497,0.053885676,0.010155653,1.000000000,18.000000000,0.013139379,0.251355231,47.397971131,8.546163744,4148000.000000000,0.000059999,1764161883183404.000000000,1764161883179404.000000000,-2.578034163,1.000000000,1.000000000,-0.009396971,3.000000000,-0.017207762,0.000767575,2.000000000,3.435338974,1.000000000,4.000000000,1.000000000,3.536689758,0.033125177,-0.004485975,1.000000000,3.000000000,1.000000000
1764161883.288388,-0.002457229,-0.003406261,-0.000702683,0.000000000,-0.251264662,-0.529267907,-0.008502826,-0.010987740,0.006643715,0.004897114,-0.009492125,-0.251264662,0.100000001,3.000000000,0.000000000,0.000000000,0.010000001,0.151450813,0.166373074,0.086711138,0.054039724,0.010158718,1.000000000,18.000000000,0.013140931,0.251355231,47.397971131,8.546163744,4148000.000000000,0.000060089,1764161883199404.000000000,1764161883195404.000000000,-2.578031778,1.000000000,1.000000000,-0.009323166,3.000000000,-0.017222581,0.000745688,2.000000000,3.435472012,1.000000000,4.000000000,1.000000000,3.536591768,0.033073261,-0.004487267,1.000000000,3.000000000,1.000000000
1764161883.296865,0.002000306,0.000466694,-0.005874317,0.000000000,-0.251264662,-0.529267907,-0.008502826,-0.010987740,0.006643715,0.004897114,-0.009492125,-0.251264662,0.100000001,3.000000000,0.000000000,0.000000000,0.010000001,0.151867211,0.166633934,0.087012514,0.054116599,0.010157740,1.000000000,18.000000000,0.013141707,0.251355231,47.397971131,8.546163744,4148000.000000000,0.000060134,1764161883207404.000000000,1764161883203404.000000000,-2.578033209,1.000000000,1.000000000,-0.009254485,3.000000000,-0.017194916,0.000679455,2.000000000,3.435534000,1.000000000,4.000000000,1.000000000,3.536539793,0.033048272,-0.004541749,1.000000000,3.000000000,1.000000000
1764161883.308601,0.000068503,-0.008785554,-0.003474299,0.000000000,-0.251264662,-0.529267907,-0.008502826,-0.010987740,0.006643715,0.004897114,-0.009492125,-0.251264662,0.100000001,3.000000000,0.000000000,0.000000000,0.010000001,0.150577188,0.165923208,0.086076222,0.053888425,0.010160229,1.000000000,18.000000000,0.013142474,0.251355231,47.397971131,8.546163744,4148000.000000000,0.000059995,1764161883215404.000000000,1764161883211404.000000000,-2.578031063,1.000000000,1.000000000,-0.009181349,3.000000000,-0.017248295,0.000631136,2.000000000,3.435629845,1.000000000,4.000000000,1.000000000,3.536489964,0.033024713,-0.004576393,1.000000000,3.000000000,1.000000000
1764161883.317645,-0.008857029,-0.002011602,-0.006023794,0.000000000,-0.251264662,-0.529267907,-0.008502826,-0.010987740,0.006643715,0.004897114,-0.009492125,-0.251264662,0.100000001,3.000000000,0.000000000,0.000000000,0.010000001,0.150987998,0.165997341,0.086376794,0.053943705,0.010154540,1.000000000,18.000000000,0.013143250,0.251355231,47.397971131,8.546163744,4148000.000000000,0.000060040,1764161883223404.000000000,1764161883219404.000000000,-2.578037262,1.000000000,1.000000000,-0.009181380,3.000000000,-0.017247925,0.000561688,2.000000000,3.435721874,1.000000000,4.000000000,1.000000000,3.536437511,0.032994792,-0.004638296,1.000000000,3.000000000,1.000000000
1764161883.329216,-0.004694513,-0.002608776,0.001227017,0.000000000,-0.251264662,-0.529267907,-0.008502826,-0.010987740,0.006643715,0.004897114,-0.009492125,-0.251264662,0.100000001,3.000000000,0.000000000,0.000000000,0.010000001,0.151401445,0.166257247,0.086677648,0.054020703,0.010151861,1.000000000,18.000000000,0.013144027,0.251355231,47.397971131,8.546163744,4148000.000000000,0.000060085,1764161883231404.000000000,1764161883227404.000000000,-2.578040600,1.000000000,1.000000000,-0.009149830,3.000000000,-0.017252756,0.000550877,2.000000000,3.435810328,1.000000000,4.000000000,1.000000000,3.536383152,0.032965332,-0.004640501,1.000000000,3.000000000,1.000000000
